[
  {
    "team": "Mexico",
    "country_code": "MX",
    "group": "A",
    "training_site": "Centro de Alto Rendimiento",
    "training_address": "Cam. a Santiago 34, Dolores Tlali, Tlalpan, 14655 Ciudad de México, CDMX, Mexico",
    "hotel_name": "Centro de Alto Rendimiento",
    "hotel_address": "Cam. a Santiago 34, Dolores Tlali, Tlalpan, 14655 Ciudad de México, CDMX, Mexico",
    "confirmed": "FALSE",
    "source_notes": "Host nation - to confirm",
    "lng": -99.146382,
    "lat": 19.240023,
    "geocode_relevance": 0.6512477764006162,
    "geocode_source": "training_address"
  },
  {
    "team": "South Korea",
    "country_code": "KR",
    "group": "A",
    "training_site": "Chivas Verde Valle",
    "training_address": "C. Francisco I. Madero 5840, Jocotán, 45017 Zapopan, Jal., Mexico",
    "hotel_name": "Westin Guadalajara",
    "hotel_address": "Av de Las Rosas 2911, Verde Valle, 44530 Guadalajara, Jal., Mexico",
    "confirmed": "TRUE",
    "source_notes": "SportsTravel",
    "lng": -103.35941,
    "lat": 20.674793,
    "geocode_relevance": 0.451178,
    "geocode_source": "hotel_address"
  },
  {
    "team": "Czechia",
    "country_code": "CZ",
    "group": "A",
    "training_site": "Mansfield Stadium",
    "training_address": "3405 Stadium Drive, Mansfield, TX 76063",
    "hotel_name": "Sheraton Fort Worth Downtown Hotel",
    "hotel_address": "1701 Commerce St, Fort Worth, TX 76102",
    "confirmed": "TRUE",
    "source_notes": "SportsTravel",
    "lng": -97.08206,
    "lat": 32.551638,
    "geocode_relevance": 1,
    "geocode_source": "training_address"
  },
  {
    "team": "South Africa",
    "country_code": "ZA",
    "group": "A",
    "training_site": "Universidad del Futbol y Ciencias del Deporte",
    "training_address": "Libramiento circuito de la Concepción km. 2 s/n 42160 Municipio La Concepción, Hgo., Mexico",
    "hotel_name": "Camino Real Pachuca",
    "hotel_address": "Camino Real de La Plata Manzana 3 Lote 15, Zona Plateada, 42083 Pachuca de Soto, Hgo., Mexico",
    "confirmed": "TRUE",
    "source_notes": "SportsTravel",
    "lng": -98.770486,
    "lat": 20.096407,
    "geocode_relevance": 0.944444,
    "geocode_source": "hotel_address"
  },
  {
    "team": "Canada",
    "country_code": "CA",
    "group": "B",
    "training_site": "National Soccer Development Centre",
    "training_address": "3065 Wesbrook Mall, Vancouver, BC V6T 2J3, Canada",
    "hotel_name": "The Westin Bayshore, Vancouver",
    "hotel_address": "1601 Bayshore Dr., Vancouver, BC V6G 2V4, Canada",
    "confirmed": "FALSE",
    "source_notes": "Host nation - to confirm",
    "lng": -123.239229,
    "lat": 49.258922,
    "geocode_relevance": 0.898889,
    "geocode_source": "training_address"
  },
  {
    "team": "Switzerland",
    "country_code": "CH",
    "group": "B",
    "training_site": "San Diego Jewish Academy",
    "training_address": "11860 Carmel Creek Rd, San Diego, CA 92130",
    "hotel_name": "Fairmont Grand Del Mar",
    "hotel_address": "5300 Grand Del Mar Ct, San Diego, CA 92130",
    "confirmed": "TRUE",
    "source_notes": "SportsTravel",
    "lng": -117.230859,
    "lat": 32.933097,
    "geocode_relevance": 1,
    "geocode_source": "training_address"
  },
  {
    "team": "Qatar",
    "country_code": "QA",
    "group": "B",
    "training_site": "Westmont College",
    "training_address": "955 La Paz Rd, Santa Barbara, CA 93108",
    "hotel_name": "Courtyard by Marriott Santa Barbara Goleta",
    "hotel_address": "401 Storke Rd, Goleta, CA 93117",
    "confirmed": "PARTIAL",
    "source_notes": "SportsTravel - training at UCSB/Westmont Montecito",
    "lng": -119.660244,
    "lat": 34.449603,
    "geocode_relevance": 0.875,
    "geocode_source": "training_address"
  },
  {
    "team": "Bosnia and Herzegovina",
    "country_code": "BA",
    "group": "B",
    "training_site": "America First Field",
    "training_address": "9256 S State St, Sandy, UT 84070",
    "hotel_name": "Asher Adams, Autograph Collection",
    "hotel_address": "2 400 W, Salt Lake City, UT 84101",
    "confirmed": "FALSE",
    "source_notes": "To confirm",
    "lng": -111.893431,
    "lat": 40.58249,
    "geocode_relevance": 1,
    "geocode_source": "training_address"
  },
  {
    "team": "Brazil",
    "country_code": "BR",
    "group": "C",
    "training_site": "Columbia Park Training Center",
    "training_address": "103 Columbia Road, Morris Township, NJ 07960",
    "hotel_name": "The Ridge Hotel",
    "hotel_address": "300 N Maple Ave, Basking Ridge, NJ 07920",
    "confirmed": "TRUE",
    "source_notes": "SportsTravel",
    "lng": -74.44305,
    "lat": 40.79084,
    "geocode_relevance": 1,
    "geocode_source": "training_address"
  },
  {
    "team": "Morocco",
    "country_code": "MA",
    "group": "C",
    "training_site": "The Pingry School",
    "training_address": "50 Country Day Dr, Short Hills, NJ 07078",
    "hotel_name": "Somerset Hills Hotel, Tapestry Collection by Hilton",
    "hotel_address": "200 Liberty Corner Rd, Warren, NJ 07059",
    "confirmed": "FALSE",
    "source_notes": "To confirm",
    "lng": -74.334848,
    "lat": 40.742226,
    "geocode_relevance": 1,
    "geocode_source": "training_address"
  },
  {
    "team": "Haiti",
    "country_code": "HT",
    "group": "C",
    "training_site": "Stockton University",
    "training_address": "101 Vera King Farris Dr, Galloway, NJ 08205",
    "hotel_name": "Sheraton Atlantic City Convention Center Hotel",
    "hotel_address": "2 Convention Blvd, Atlantic City, NJ 08401",
    "confirmed": "FALSE",
    "source_notes": "Group C TBD post-draw",
    "lng": -74.530995,
    "lat": 39.492032,
    "geocode_relevance": 1,
    "geocode_source": "training_address"
  },
  {
    "team": "Scotland",
    "country_code": "GB-SCT",
    "group": "C",
    "training_site": "Charlotte FC complex",
    "training_address": "8600 McAlpine Park Drive, Charlotte, NC 28211",
    "hotel_name": "Renaissance Charlotte SouthPark",
    "hotel_address": "5501 Carnegie Blvd, Charlotte, NC 28209",
    "confirmed": "TRUE",
    "source_notes": "FOX 5 DC - XS is custom code for Scotland",
    "lng": -80.751006,
    "lat": 35.151328,
    "geocode_relevance": 1,
    "geocode_source": "training_address"
  },
  {
    "team": "USA",
    "country_code": "US",
    "group": "D",
    "training_site": "Great Park Championship Soccer Stadium",
    "training_address": "8000 Great Park Blvd, Irvine, CA 92618",
    "hotel_name": "Marriott Irvine Spectrum",
    "hotel_address": "7905 Irvine Center Dr, Irvine, CA 92618",
    "confirmed": "TRUE",
    "source_notes": "SportsTravel - hotel TBD",
    "lng": -117.738802,
    "lat": 33.672917,
    "geocode_relevance": 1,
    "geocode_source": "training_address"
  },
  {
    "team": "Paraguay",
    "country_code": "PY",
    "group": "D",
    "training_site": "Spartan Soccer Complex",
    "training_address": "1312 S 10th St, San Jose, CA 95112",
    "hotel_name": "Signia by Hilton San Jose",
    "hotel_address": "170 S Market St, San Jose, CA 95113",
    "confirmed": "FALSE",
    "source_notes": "To confirm",
    "lng": -121.865734,
    "lat": 37.320288,
    "geocode_relevance": 1,
    "geocode_source": "training_address"
  },
  {
    "team": "Australia",
    "country_code": "AU",
    "group": "D",
    "training_site": "Oakland Roots Training Facility",
    "training_address": "1220 Harbor Bay Parkway, Alameda, CA 94502",
    "hotel_name": "Claremont Resort & Club",
    "hotel_address": "41 Tunnel Rd, Berkeley, CA 94705",
    "confirmed": "FALSE",
    "source_notes": "To confirm",
    "lng": -122.233079,
    "lat": 37.725147,
    "geocode_relevance": 1,
    "geocode_source": "training_address"
  },
  {
    "team": "Turkey",
    "country_code": "TR",
    "group": "D",
    "training_site": "Arizona Athletic Grounds",
    "training_address": "6321 S Ellsworth Rd, Mesa, AZ 85212",
    "hotel_name": "Courtyard by Marriott Mesa at Wrigleyville West",
    "hotel_address": "2224 W Rio Salado Pkwy, Mesa, AZ 85201",
    "confirmed": "FALSE",
    "source_notes": "To confirm",
    "lng": -111.628752,
    "lat": 33.300106,
    "geocode_relevance": 1,
    "geocode_source": "training_address"
  },
  {
    "team": "Germany",
    "country_code": "DE",
    "group": "E",
    "training_site": "W. Dennie Spry Soccer Stadium",
    "training_address": "Winston-Salem, NC 27106",
    "hotel_name": "The Graylyn Estate",
    "hotel_address": "1900 Reynolda Rd, Winston-Salem, NC 27106",
    "confirmed": "FALSE",
    "source_notes": "To confirm",
    "lng": -80.314288,
    "lat": 36.116832,
    "geocode_relevance": 1,
    "geocode_source": "training_address"
  },
  {
    "team": "CuraCao",
    "country_code": "CW",
    "group": "E",
    "training_site": "FAU soccer complex",
    "training_address": "777 Glades Rd, Boca Raton, FL 33431",
    "hotel_name": "Boca Raton Marriott at Boca Center",
    "hotel_address": "5150 Town Center Cir, Boca Raton, FL 33486",
    "confirmed": "TRUE",
    "source_notes": "FOX 5 DC",
    "lng": -80.10229,
    "lat": 26.36943,
    "geocode_relevance": 1,
    "geocode_source": "training_address"
  },
  {
    "team": "Ivory Coast",
    "country_code": "CI",
    "group": "E",
    "training_site": "Subaru Park (Philadelphia Union)",
    "training_address": "1 Stadium Drive, Chester, PA 19013",
    "hotel_name": "HOTEL DU PONT",
    "hotel_address": "42 W 11th St, Wilmington, DE 19801",
    "confirmed": "TRUE",
    "source_notes": "FOX 5 DC",
    "lng": -75.378474,
    "lat": 39.833307,
    "geocode_relevance": 1,
    "geocode_source": "training_address"
  },
  {
    "team": "Ecuador",
    "country_code": "EC",
    "group": "E",
    "training_site": "Columbus Crew facilities",
    "training_address": "1 Black and Gold Blvd, Columbus, OH 43211",
    "hotel_name": "Le Méridien Columbus",
    "hotel_address": "620 N High St, Columbus, OH 43215",
    "confirmed": "TRUE",
    "source_notes": "FOX 5 DC",
    "lng": -82.9912,
    "lat": 40.008758,
    "geocode_relevance": 1,
    "geocode_source": "training_address"
  },
  {
    "team": "Sweden",
    "country_code": "SE",
    "group": "F",
    "training_site": "Toyota Stadium",
    "training_address": "9200 World Cup Way, Frisco, TX 75033",
    "hotel_name": "The Westin Dallas Stonebriar",
    "hotel_address": "1549 Legacy Dr, Frisco, TX 75034",
    "confirmed": "PARTIAL",
    "source_notes": "SportsTravel - exact site TBD",
    "lng": -96.835891,
    "lat": 33.154279,
    "geocode_relevance": 1,
    "geocode_source": "training_address"
  },
  {
    "team": "Tunisia",
    "country_code": "TN",
    "group": "F",
    "training_site": "El Barrial Training Center",
    "training_address": "Camino a Los Cavazos, Quinta San Jorge, 67340 Santiago, Nuevo León, Mexico",
    "hotel_name": "The Westin Monterrey Valle",
    "hotel_address": "Av. Manuel Gomez Morin y Rio Missouri, Punto Valle, 66220 San Pedro Garza García, N.L., Mexico",
    "confirmed": "TRUE",
    "source_notes": "SportsTravel",
    "lng": -100.188171,
    "lat": 25.464249,
    "geocode_relevance": 0.796296,
    "geocode_source": "training_address"
  },
  {
    "team": "Japan",
    "country_code": "JP",
    "group": "F",
    "training_site": "Nashville SC – Vanderbilt Health Training Center",
    "training_address": "4251 Century Farms Ter, Antioch, TN 37013",
    "hotel_name": "TBD",
    "hotel_address": "Nashville, TN 37201",
    "confirmed": "FALSE",
    "source_notes": "To confirm",
    "lng": -86.654199,
    "lat": 36.035481,
    "geocode_relevance": 1,
    "geocode_source": "training_address"
  },
  {
    "team": "Netherlands",
    "country_code": "NL",
    "group": "F",
    "training_site": "KC Current Training Facility",
    "training_address": "1 Teal Rising Way, Riverside, MO 64150",
    "hotel_name": "Hotel Kansas City - The Unbound Collection by Hyatt",
    "hotel_address": "1228 Baltimore Ave, Kansas City, MO 64105",
    "confirmed": "TRUE",
    "source_notes": "Kansas City FWC26 official",
    "lng": -94.63653,
    "lat": 39.16525,
    "geocode_relevance": 1,
    "geocode_source": "training_address"
  },
  {
    "team": "Belgium",
    "country_code": "BE",
    "group": "G",
    "training_site": "Seattle Sounders FC training center",
    "training_address": "901 Monster Rd SW, Renton, WA 98057",
    "hotel_name": "Hyatt Regency Lake Washington at Seattle's Southport",
    "hotel_address": "1053 Lake Washington Blvd N, Renton, WA 98056",
    "confirmed": "FALSE",
    "source_notes": "To confirm",
    "lng": -122.243313,
    "lat": 47.470294,
    "geocode_relevance": 1,
    "geocode_source": "training_address"
  },
  {
    "team": "Egypt",
    "country_code": "EG",
    "group": "G",
    "training_site": "Luger Field (Gonzaga University)",
    "training_address": "Spokane, WA 99258",
    "hotel_name": "Northern Quest Resort and Casino",
    "hotel_address": "Hayford Rd, Airway Heights, WA",
    "confirmed": "TRUE",
    "source_notes": "SportsTravel",
    "lng": -117.397908,
    "lat": 47.665901,
    "geocode_relevance": 1,
    "geocode_source": "training_address"
  },
  {
    "team": "New Zealand",
    "country_code": "NZ",
    "group": "G",
    "training_site": "University of San Diego",
    "training_address": "5998 Alcala Park Way, San Diego, CA 92110",
    "hotel_name": "Hyatt Regency La Jolla at Aventine",
    "hotel_address": "3777 La Jolla Village Dr, San Diego, CA 92122",
    "confirmed": "FALSE",
    "source_notes": "To confirm",
    "lng": -117.190188,
    "lat": 32.772394,
    "geocode_relevance": 1,
    "geocode_source": "training_address"
  },
  {
    "team": "Iran",
    "country_code": "IR",
    "group": "G",
    "training_site": "Kino Sports Complex",
    "training_address": "2500 E Ajo Way, Tucson, AZ 85713",
    "hotel_name": "Westward Look Wyndham Grand Resort and Spa",
    "hotel_address": "245 E Ina Rd, Tucson, AZ 85704",
    "confirmed": "FALSE",
    "source_notes": "To confirm",
    "lng": -110.934351,
    "lat": 32.176539,
    "geocode_relevance": 1,
    "geocode_source": "training_address"
  },
  {
    "team": "Spain",
    "country_code": "ES",
    "group": "H",
    "training_site": "Baylor School",
    "training_address": "171 Baylor School Rd, Chattanooga, TN 37405",
    "hotel_name": "Embassy Suites by Hilton Chattanooga Downtown",
    "hotel_address": "345 Broad St, Chattanooga, TN 37402",
    "confirmed": "PARTIAL",
    "source_notes": "FOX 5 DC - exact site TBD",
    "lng": -85.3361,
    "lat": 35.08638,
    "geocode_relevance": 1,
    "geocode_source": "training_address"
  },
  {
    "team": "Cape Verde",
    "country_code": "CV",
    "group": "H",
    "training_site": "Waters Sportsplex",
    "training_address": "8108 Benjamin Rd, Tampa, FL 33634",
    "hotel_name": "Grand Hyatt Tampa Bay",
    "hotel_address": "2900 Bayport Dr, Tampa, FL 33607",
    "confirmed": "FALSE",
    "source_notes": "To confirm",
    "lng": -82.54248,
    "lat": 28.0242,
    "geocode_relevance": 1,
    "geocode_source": "training_address"
  },
  {
    "team": "Saudi Arabia",
    "country_code": "SA",
    "group": "H",
    "training_site": "Q2 Stadium (Austin FC facilities)",
    "training_address": "10414 Mc Kalla Pl, Austin, TX 78758",
    "hotel_name": "Four Seasons Hotel Austin",
    "hotel_address": "98 San Jacinto Blvd, Austin, TX 78701",
    "confirmed": "TRUE",
    "source_notes": "FOX 5 DC",
    "lng": -97.719432,
    "lat": 30.387707,
    "geocode_relevance": 1,
    "geocode_source": "training_address"
  },
  {
    "team": "Uruguay",
    "country_code": "UY",
    "group": "H",
    "training_site": "Mayakoba Training Centre Cancún",
    "training_address": "Carretera Federal Cancún-Playa del Carmen KM 298, 77710 Playa del Carmen, Q.R., Mexico.",
    "hotel_name": "Fairmont Mayakoba",
    "hotel_address": "Carretera Federal Cancún Km 298, 77710 Playa del Carmen, Q.R., Mexico",
    "confirmed": "FALSE",
    "source_notes": "To confirm",
    "lng": -87.052036,
    "lat": 20.681253,
    "geocode_relevance": 0.666667,
    "geocode_source": "training_address"
  },
  {
    "team": "France",
    "country_code": "FR",
    "group": "I",
    "training_site": "Bentley University",
    "training_address": "175 Forest St, Waltham, MA 02452",
    "hotel_name": "Four Seasons Hotel Boston",
    "hotel_address": "200 Boylston St, Boston, MA 02116",
    "confirmed": "TRUE",
    "source_notes": "FOX 5 DC",
    "lng": -71.221268,
    "lat": 42.388437,
    "geocode_relevance": 1,
    "geocode_source": "training_address"
  },
  {
    "team": "Senegal",
    "country_code": "SN",
    "group": "I",
    "training_site": "Rutgers University",
    "training_address": "57 US Highway 1, New Brunswick, NJ 08901",
    "hotel_name": "Delta Hotels Somerset",
    "hotel_address": "110 Davidson Ave, Somerset, NJ 08873",
    "confirmed": "FALSE",
    "source_notes": "To confirm",
    "lng": -74.424937,
    "lat": 40.479092,
    "geocode_relevance": 1,
    "geocode_source": "training_address"
  },
  {
    "team": "Iraq",
    "country_code": "IQ",
    "group": "I",
    "training_site": "Greenbrier Sports Performance Center",
    "training_address": "274 Greenbrier Medical Wy, White Sulphur Springs, WV 24986",
    "hotel_name": "The Greenbrier",
    "hotel_address": "101 W Main St, White Sulphur Springs, WV 24986",
    "confirmed": "",
    "source_notes": "",
    "lng": -80.308449,
    "lat": 37.781879,
    "geocode_relevance": 1,
    "geocode_source": "training_address"
  },
  {
    "team": "Norway",
    "country_code": "NO",
    "group": "I",
    "training_site": "UNC Greensboro",
    "training_address": "1400 Spring Garden St, Greensboro, NC 27412",
    "hotel_name": "Grandover Resort & Spa",
    "hotel_address": "1000 Club Rd, Greensboro, NC 27407",
    "confirmed": "TRUE",
    "source_notes": "FOX 5 DC",
    "lng": -79.813056,
    "lat": 36.0656,
    "geocode_relevance": 1,
    "geocode_source": "training_address"
  },
  {
    "team": "Argentina",
    "country_code": "AR",
    "group": "J",
    "training_site": "National Performance Center (Sporting KC)",
    "training_address": "1913 Pinnacle WayKansas City, KS 66111",
    "hotel_name": "Hotel Savoy Kansas City",
    "hotel_address": "219 W 9th St, Kansas City, MO 64105",
    "confirmed": "TRUE",
    "source_notes": "Kansas City FWC26 official",
    "lng": -94.804936,
    "lat": 39.126798,
    "geocode_relevance": 1,
    "geocode_source": "training_address"
  },
  {
    "team": "Algeria",
    "country_code": "DZ",
    "group": "J",
    "training_site": "Rock Chalk Park",
    "training_address": "1450 Jayhawk Blvd, Lawrence, KS 66045",
    "hotel_name": "The Oread Lawrence",
    "hotel_address": "1200 Oread Ave, Lawrence, KS 66044",
    "confirmed": "TRUE",
    "source_notes": "Kansas City FWC26 official",
    "lng": -95.247623,
    "lat": 38.958549,
    "geocode_relevance": 1,
    "geocode_source": "training_address"
  },
  {
    "team": "Austria",
    "country_code": "AT",
    "group": "J",
    "training_site": "UC Santa Barbara",
    "training_address": "Santa Barbara, CA 93106",
    "hotel_name": "The Ritz-Carlton Bacara",
    "hotel_address": "8301 Hollister Ave, Santa Barbara, CA 93117",
    "confirmed": "",
    "source_notes": "",
    "lng": -119.853344,
    "lat": 34.421628,
    "geocode_relevance": 1,
    "geocode_source": "training_address"
  },
  {
    "team": "Jordan",
    "country_code": "JO",
    "group": "J",
    "training_site": "University of Portland",
    "training_address": "5000 N Willamette Blvd, Portland, OR 97203",
    "hotel_name": "The Nines, a Luxury Collection Hotel",
    "hotel_address": "525 SW Morrison St, Portland, OR 97204",
    "confirmed": "PARTIAL",
    "source_notes": "World Cup Guide - reported but unofficial",
    "lng": -122.724489,
    "lat": 45.571774,
    "geocode_relevance": 1,
    "geocode_source": "training_address"
  },
  {
    "team": "Portugal",
    "country_code": "PT",
    "group": "K",
    "training_site": "Gardens North County District Park",
    "training_address": "5101 117th Ct N, Palm Beach Gardens, FL 33418",
    "hotel_name": "Four Seasons Resort Palm Beach",
    "hotel_address": "2800 S Ocean Blvd, Palm Beach, FL 33480",
    "confirmed": "FALSE",
    "source_notes": "To confirm",
    "lng": -80.11477,
    "lat": 26.85017,
    "geocode_relevance": 0.856481,
    "geocode_source": "training_address"
  },
  {
    "team": "DR Congo",
    "country_code": "CD",
    "group": "K",
    "training_site": "SaberCats Stadium",
    "training_address": "2055 Mowery Rd, Houston, TX 77051",
    "hotel_name": "Omni Houston Hotel",
    "hotel_address": "4 Riverway Dr, Houston, TX 77056",
    "confirmed": "TRUE",
    "source_notes": "FOX 5 DC",
    "lng": -95.391679,
    "lat": 29.634777,
    "geocode_relevance": 0.893519,
    "geocode_source": "training_address"
  },
  {
    "team": "Uzbekistan",
    "country_code": "UZ",
    "group": "K",
    "training_site": "Children's Healthcare of Atlanta Training Ground",
    "training_address": "861 Franklin Gateway SE, Marietta, GA 30067",
    "hotel_name": "JW Marriott Atlanta Buckhead",
    "hotel_address": "3300 Lenox Rd NE, Atlanta, GA 30326",
    "confirmed": "FALSE",
    "source_notes": "To confirm",
    "lng": -84.497895,
    "lat": 33.933961,
    "geocode_relevance": 1,
    "geocode_source": "training_address"
  },
  {
    "team": "Colombia",
    "country_code": "CO",
    "group": "K",
    "training_site": "Academia Atlas FC",
    "training_address": "Avenida Patria 1501, Interior 2, Zapopan, Jalisco 45136, MX",
    "hotel_name": "Grand Fiesta Americana Country Club",
    "hotel_address": "Av. de las Américas 1551, Providencia, 44630 Guadalajara, Jal., Mexico",
    "confirmed": "FALSE",
    "source_notes": "To confirm",
    "lng": -103.415535,
    "lat": 20.691929,
    "geocode_relevance": 0.825397,
    "geocode_source": "training_address"
  },
  {
    "team": "England",
    "country_code": "GB-ENG",
    "group": "L",
    "training_site": "Swope Soccer Village",
    "training_address": "6310 Lewis Rd, Kansas City, MO 64132",
    "hotel_name": "The Inn at Meadowbrook Hotel",
    "hotel_address": "4901 Meadowbrook Pkwy, Prairie Village, KS 66207",
    "confirmed": "TRUE",
    "source_notes": "Kansas City FWC26 official",
    "lng": -94.520662,
    "lat": 39.012783,
    "geocode_relevance": 1,
    "geocode_source": "training_address"
  },
  {
    "team": "Croatia",
    "country_code": "HR",
    "group": "L",
    "training_site": "Episcopal High School",
    "training_address": "1200 N Quaker Ln, Alexandria, VA 22302",
    "hotel_name": "Hotel AKA, Alexandria",
    "hotel_address": "625 First St, Alexandria, VA 22314",
    "confirmed": "TRUE",
    "source_notes": "FOX 5 DC",
    "lng": -77.09391,
    "lat": 38.82445,
    "geocode_relevance": 1,
    "geocode_source": "training_address"
  },
  {
    "team": "Ghana",
    "country_code": "GH",
    "group": "L",
    "training_site": "Bryant University",
    "training_address": "1150 Douglas Pike, Smithfield, RI 02917",
    "hotel_name": "Graduate by Hilton Providence",
    "hotel_address": "11 Dorrance St, Providence, RI 02903",
    "confirmed": "FALSE",
    "source_notes": "To confirm",
    "lng": -71.537687,
    "lat": 41.921307,
    "geocode_relevance": 1,
    "geocode_source": "training_address"
  },
  {
    "team": "Panama",
    "country_code": "PA",
    "group": "L",
    "training_site": "Nottawasaga Resort & Conference Centre",
    "training_address": "6015 ON-89, Alliston, ON L9R 1A4, Canada",
    "hotel_name": "Nottawasaga Resort & Conference Centre",
    "hotel_address": "6015 ON-89, Alliston, ON L9R 1A4, Canada",
    "confirmed": "",
    "source_notes": "",
    "lng": -79.798694,
    "lat": 44.165052,
    "geocode_relevance": 0.722222,
    "geocode_source": "training_address"
  }
]